latitudine,longitudine,Positivi ultimi 30gg,Deceduti ultimi 30gg,Comune
39.72177269,16.09007863,-,-,ACQUAFORMOSA
39.49462453,15.95403649,1,-,ACQUAPPESA
39.48835683,16.38155051,7,1,ACRI
39.11696903,16.16704573,1,-,AIELLO CALABRO
39.92835498,15.82365257,1,-,AIETA
39.92268533,16.47454413,1,-,ALBIDONA
39.95853578,16.37827535,-,-,ALESSANDRIA DEL CARRETTO
39.13010851,16.25269561,-,-,ALTILIA
39.69820643,16.12925055,6,1,ALTOMONTE
39.13287384,16.08001218,26,-,AMANTEA
39.95101261,16.58410071,-,-,AMENDOLARA
39.24053515,16.34080544,1,-,APRIGLIANO
39.16056055,16.07789547,1,-,BELMONTE CALABRO
39.17401078,16.28794816,-,-,BELSITO
39.61804375,15.8613154,33,-,BELVEDERE MARITTIMO
39.10080642,16.41066245,-,-,BIANCHI
39.5126271,16.28652064,16,-,BISIGNANO
39.41775539,16.7562776,32,-,BOCCHIGLIERO
39.58691422,15.90507114,13,-,BONIFATI
39.68892272,15.88391307,16,-,BUONVICINO
39.55889224,16.80171204,-,-,CALOPEZZATI
39.50754475,16.75764264,1,-,CALOVETO
39.40982925,16.82601626,-,-,CAMPANA
40.09477355,16.50524217,1,-,CANNA
39.49578816,16.94708938,14,1,CARIATI
39.2530973,16.21860838,7,-,CAROLEI
39.14766081,16.30357187,-,-,CARPANZANO
39.2854,16.3373,19,-,CASALI DEL MANCO
39.78187129,16.31920823,51,2,CASSANO ALL'IONIO
39.35271086,16.2882154,6,-,CASTIGLIONE COSENTINO
39.3100225,16.19453661,13,-,CASTROLIBERO
39.99257445,16.47831522,-,-,CASTROREGIO
39.81097584,16.20229605,15,1,CASTROVILLARI
39.31066737,16.34028978,3,1,CELICO
39.21796333,16.33276902,-,-,CELLARA
39.85915335,16.38164245,4,-,CERCHIARA DI CALABRIA
39.27454637,16.17836482,-,-,CERISANO
39.54236798,16.12681954,2,-,CERVICATI
39.50771022,16.11397992,6,-,CERZETO
39.51621474,15.94302226,14,-,CETRARO
39.82770121,16.31318974,-,-,CIVITA
39.1165804,16.16592667,2,-,CLETO
39.11886134,16.39984966,-,-,COLOSIMI
39.59484252,16.52186588,339,5,CORIGLIANO-ROSSANO
39.29308673,16.25609864,104,-,COSENZA
39.51563374,16.72606403,7,-,CROPALATI
39.5701096,16.76987711,29,-,CROSIA
39.67632526,15.82176185,23,-,DIAMANTE
39.23767313,16.25224534,2,-,DIPIGNANO
39.21523217,16.20734893,-,-,DOMANICO
39.56115859,16.05445487,-,-,FAGNANO CASTELLO
39.27437583,16.08827857,1,-,FALCONARA ALBANESE
39.22605287,16.32940444,-,-,FIGLINE VEGLIATURO
39.72207745,16.17833922,5,-,FIRMO
39.23589126,16.06634886,4,-,FIUMEFREDDO BRUZIO
39.81978031,16.38751107,5,-,FRANCAVILLA MARITTIMA
39.83697242,16.26281179,-,-,FRASCINETO
39.41626329,16.03134735,22,1,FUSCALDO
39.13972195,16.23468119,-,-,GRIMALDI
39.72645185,15.85375821,15,-,GRISOLIA
39.46520252,15.99968553,3,-,GUARDIA PIEMONTESE
39.16655127,16.1491028,-,-,LAGO
39.95478426,15.97230029,7,-,LAINO BORGO
39.9344474,15.97444333,3,-,LAINO CASTELLO
39.31926681,16.31382807,-,-,LAPPANO
39.46209103,16.13660369,1,-,LATTARICO
39.20742335,16.07681773,39,2,LONGOBARDI
39.44871877,16.60949425,8,-,LONGOBUCCO
39.74407353,16.12174742,4,-,LUNGRO
39.44634155,16.28817661,17,1,LUZZI
39.71612827,15.85041145,1,-,MAIERÃ€
39.15887133,16.24646658,-,-,MALITO
39.60105409,16.05340915,5,-,MALVITO
39.4702289,16.83669521,4,-,MANDATORICCIO
39.20437182,16.33262497,6,-,MANGONE
39.31506293,16.1736201,3,-,MARANO MARCHESATO
39.30129249,16.17424589,6,-,MARANO PRINCIPATO
39.17062752,16.30704697,-,-,MARZI
39.26211657,16.19288767,25,-,MENDICINO
39.52715037,16.11144528,1,1,MONGRASSANO
39.40552343,16.15846935,58,1,MONTALTO UFFUGO
40.04407506,16.53244946,1,-,MONTEGIORDANO
39.84180415,16.13534776,4,1,MORANO CALABRO
39.88973067,15.98760211,-,-,MORMANNO
39.64705834,16.06664094,-,-,MOTTAFOLLONE
40.09894271,16.48353728,-,-,NOCARA
40.05293541,16.44448908,8,-,ORIOLO
39.79908366,15.90784885,1,-,ORSOMARSO
39.53101927,16.67857124,-,-,PALUDI
39.06007069,16.45375019,-,-,PANETTIERI
39.35993586,16.04152008,26,-,PAOLA
39.87158979,15.90580955,3,-,PAPASIDERO
39.16280163,16.41276477,-,-,PARENTI
39.22515259,16.26310291,-,-,PATERNO CALABRO
39.1103358,16.30486327,-,-,PEDIVIGLIANO
39.23479514,16.32298308,-,-,PIANE CRATI
39.26192011,16.33876248,-,-,PIETRAFITTA
39.48683052,16.81598135,-,-,PIETRAPAOLA
39.90070112,16.43147687,-,-,PLATACI
39.89531631,15.77978015,35,-,PRAIA A MARE
39.3315362,16.18041387,59,1,RENDE
40.11056597,16.57535113,4,-,ROCCA IMPERIALE
39.6164758,16.15813054,14,1,ROGGIANO GRAVINA
39.18006073,16.32531753,-,-,ROGLIANO
39.39925354,16.29788201,2,1,ROSE
39.98665166,16.60126564,2,-,ROSETO CAPO SPULICO
39.46700606,16.11350876,6,-,ROTA GRECA
39.30990247,16.32271924,1,-,ROVITO
39.81096645,16.16360832,-,-,SAN BASILE
39.42628928,16.12332625,-,-,SAN BENEDETTO ULLANO
39.58234229,16.42056575,-,-,SAN COSMO ALBANESE
39.5676736,16.36319433,1,-,SAN DEMETRIO CORONE
39.71189174,16.04820188,1,-,SAN DONATO DI NINEA
39.33762813,16.14233499,-,-,SAN FILI
39.58075449,16.45453461,-,-,SAN GIORGIO ALBANESE
39.25365492,16.69731802,18,-,SAN GIOVANNI IN FIORE
39.88922996,16.32822504,-,-,SAN LORENZO BELLIZZI
39.66685921,16.29472655,7,-,SAN LORENZO DEL VALLO
39.30820078,16.05094144,7,-,SAN LUCIDO
39.55681601,16.11786811,8,-,SAN MARCO ARGENTANO
39.49068894,16.10711702,4,-,SAN MARTINO DI FINITA
39.8457919,15.79364896,16,-,SAN NICOLA ARCELLA
39.13658207,16.11243497,-,-,SAN PIETRO IN AMANTEA
39.34473972,16.31210874,1,-,SAN PIETRO IN GUARANO
39.65815182,16.02916167,-,-,SAN SOSTI
39.36475905,16.1508893,-,-,SAN VINCENZO LA COSTA
39.60366647,15.91251148,5,-,SANGINETO
39.58577673,16.07067974,3,-,SANTA CATERINA ALBANESE
39.81957215,15.85542937,1,-,SANTA DOMENICA TALAO
39.74889043,15.83623515,30,1,SANTA MARIA DEL CEDRO
39.54597475,16.32883248,2,-,SANTA SOFIA D'EPIRO
39.62090696,15.98238081,1,-,SANT'AGATA DI ESARO
39.19223486,16.3207926,-,-,SANTO STEFANO DI ROGLIANO
39.77527455,16.15618881,-,-,SARACENA
39.4488244,16.88589056,1,-,SCALA COELI
39.80643078,15.79100532,50,-,SCALEA
39.12822708,16.30670827,1,-,SCIGLIANO
39.09003923,16.12612198,4,-,SERRA D'AIELLO
39.66184414,16.30856798,4,-,SPEZZANO ALBANESE
39.29780432,16.33736492,1,-,SPEZZANO DELLA SILA
39.61728492,16.27301582,-,-,TARSIA
39.65582009,16.34380151,2,-,TERRANOVA DA SIBARI
39.46366527,16.94752399,-,-,TERRAVECCHIA
39.50489706,16.14471775,12,-,TORANO CASTELLO
39.92210156,15.76829121,12,-,TORTORA
39.86679844,16.53046229,17,1,TREBISACCE
39.58707282,16.43323022,-,-,VACCARIZZO ALBANESE
39.75488674,15.91112224,1,-,VERBICARO
39.84696351,16.45512175,18,-,VILLAPIANA
39.31063234,16.29350577,1,-,ZUMPANO
